City_ID,City,Country,Date,Lat,Lng,Max Temp,Humidity,Cloudiness,Wind Speed
0,Mataura,NZ,2020-09-03 17:08:57,-46.19,168.86,45.0,72,100,11.01
1,Torbay,CA,2020-09-03 17:08:57,47.67,-52.73,66.2,63,75,19.46
2,Pisco,PE,2020-09-03 17:08:57,-13.7,-76.22,64.4,68,90,5.82
3,Padang,ID,2020-09-03 17:08:57,-0.95,100.35,77.27,83,100,1.7
4,Yaring,TH,2020-09-03 17:08:58,6.87,101.37,80.69,79,46,3.8
5,Jamestown,US,2020-09-03 17:07:59,42.1,-79.24,75.99,77,1,9.17
6,Samarai,PG,2020-09-03 17:08:58,-10.62,150.67,77.68,86,91,17.45
7,Panguna,PG,2020-09-03 17:08:59,-6.32,155.48,68.45,97,85,1.28
8,Goderich,CA,2020-09-03 17:08:59,43.75,-81.72,79.0,50,60,24.47
9,Busselton,AU,2020-09-03 17:08:59,-33.65,115.33,59.0,64,100,13.18
10,Gao,ML,2020-09-03 17:09:00,16.64,1.64,93.7,37,74,12.8
11,Mar Del Plata,AR,2020-09-03 17:09:00,-38.0,-57.56,53.01,71,75,9.17
12,Leningradskiy,RU,2020-09-03 17:09:00,69.38,178.42,34.57,94,100,3.2
13,Esperance,AU,2020-09-03 17:09:00,-33.87,121.9,51.8,76,4,11.41
14,Lorient,FR,2020-09-03 17:09:01,47.83,-3.25,71.01,68,20,13.87
15,Cape Town,ZA,2020-09-03 17:04:18,-33.93,18.42,64.0,77,75,6.93
16,Vaini,TO,2020-09-03 17:09:01,-21.2,-175.2,69.8,73,40,13.87
17,Bayanday,RU,2020-09-03 17:09:01,53.07,105.51,49.62,86,0,1.1
18,Longyearbyen,SJ,2020-09-03 17:09:02,78.22,15.64,42.8,93,75,2.24
19,Pabrade,LT,2020-09-03 17:09:02,55.0,25.78,64.99,63,15,9.17
20,Noyabrsk,RU,2020-09-03 17:09:02,63.2,75.45,47.08,82,36,13.91
21,Albany,US,2020-09-03 17:05:06,42.6,-73.97,79.0,46,92,3.38
22,Pevek,RU,2020-09-03 17:09:03,69.7,170.31,34.61,89,67,5.97
23,Upernavik,GL,2020-09-03 17:09:03,72.79,-56.15,38.89,70,0,5.57
24,Okhotsk,RU,2020-09-03 17:09:03,59.38,143.3,48.61,81,46,3.33
25,Katsuura,JP,2020-09-03 17:09:03,35.13,140.3,82.0,89,93,1.99
26,Hobart,AU,2020-09-03 17:08:54,-42.88,147.33,48.2,66,75,12.75
27,Berwick,US,2020-09-03 17:09:04,41.05,-76.23,81.0,52,61,5.01
28,Bredasdorp,ZA,2020-09-03 17:09:04,-34.53,20.04,62.6,63,77,8.05
29,Ilulissat,GL,2020-09-03 17:05:18,69.22,-51.1,44.6,39,5,12.75
30,Cairns,AU,2020-09-03 17:09:05,-16.92,145.77,69.8,88,90,9.17
31,Provideniya,RU,2020-09-03 17:09:05,64.38,-173.3,39.7,73,96,2.53
32,Nishihara,JP,2020-09-03 17:09:05,26.18,127.76,80.6,100,20,3.36
33,Punta Arenas,CL,2020-09-03 17:09:06,-53.15,-70.92,46.0,70,93,6.93
34,Labuhan,ID,2020-09-03 17:09:06,-6.88,112.21,79.36,81,88,6.62
35,Tasiilaq,GL,2020-09-03 17:09:06,65.61,-37.64,44.6,65,20,9.17
36,Airai,TL,2020-09-03 17:09:06,-8.93,125.41,57.09,88,74,3.18
37,Talaya,RU,2020-09-03 17:09:07,61.38,152.75,32.79,91,13,1.45
38,Faxinal,BR,2020-09-03 17:09:07,-24.0,-51.32,80.2,46,21,9.24
39,Carnarvon,AU,2020-09-03 17:05:27,-24.87,113.63,62.6,82,0,11.41
40,Bubaque,GW,2020-09-03 17:09:07,11.28,-15.83,79.32,82,55,21.39
41,Burnie,AU,2020-09-03 17:09:08,-41.07,145.92,46.0,87,86,1.01
42,Puerto Ayora,EC,2020-09-03 17:09:08,-0.74,-90.35,71.01,73,75,19.46
43,Fortuna,US,2020-09-03 17:09:08,40.6,-124.16,57.99,93,90,5.82
44,Bad Frankenhausen,DE,2020-09-03 17:09:08,51.35,11.1,66.2,55,20,10.29
45,Yunyang,CN,2020-09-03 17:09:09,33.45,112.71,69.4,48,0,5.75
46,Thompson,CA,2020-09-03 17:09:09,55.74,-97.86,48.2,87,90,11.41
47,Saldanha,ZA,2020-09-03 17:09:09,-33.01,17.94,66.2,68,81,5.82
48,Nome,US,2020-09-03 17:09:09,64.5,-165.41,37.4,100,75,5.82
49,Hauterive,FR,2020-09-03 17:09:10,46.09,3.45,78.8,33,17,2.24
50,Nizhniy Odes,RU,2020-09-03 17:09:10,63.64,54.86,46.99,80,98,3.8
51,Yeppoon,AU,2020-09-03 17:09:10,-23.13,150.73,64.4,88,40,6.93
52,Saint-Philippe,RE,2020-09-03 17:09:11,-21.36,55.77,68.0,77,75,6.93
53,Fairbanks,US,2020-09-03 17:08:38,64.84,-147.72,46.4,93,1,1.88
54,Bethel,US,2020-09-03 17:09:11,41.37,-73.41,79.0,62,51,1.99
55,Rikitea,PF,2020-09-03 17:09:11,-23.12,-134.97,71.42,86,0,8.81
56,Peachland,CA,2020-09-03 17:09:12,49.77,-119.74,68.0,59,1,16.11
57,Eureka,US,2020-09-03 17:05:48,40.8,-124.16,57.0,100,67,2.91
58,Chalon-Sur-Saone,FR,2020-09-03 17:09:12,46.78,4.85,77.0,33,24,3.36
59,Cherskiy,RU,2020-09-03 17:09:12,68.75,161.3,32.31,95,14,6.55
60,Huai Yot,TH,2020-09-03 17:09:13,7.79,99.63,76.44,92,86,1.48
61,Buchanan,LR,2020-09-03 17:09:13,5.88,-10.05,82.4,74,75,9.17
62,Elizabeth City,US,2020-09-03 17:09:13,36.29,-76.25,95.0,63,1,6.93
63,Multan,PK,2020-09-03 17:06:52,30.2,71.48,86.0,84,75,6.93
64,Kapaa,US,2020-09-03 17:09:14,22.08,-159.32,78.8,74,20,10.29
65,Hilo,US,2020-09-03 17:06:25,19.73,-155.09,73.4,69,90,8.05
66,Ushuaia,AR,2020-09-03 17:09:14,-54.8,-68.3,37.4,93,75,1.68
67,Castro,BR,2020-09-03 17:09:14,-24.79,-50.01,77.63,48,16,11.45
68,Guerrero Negro,MX,2020-09-03 17:06:39,27.98,-114.06,77.68,61,4,12.03
69,Qaanaaq,GL,2020-09-03 17:09:15,77.48,-69.36,28.54,84,75,4.09
70,Porto Santo,PT,2020-09-03 17:09:15,33.07,-16.34,75.2,60,20,10.29
71,New Norfolk,AU,2020-09-03 17:09:15,-42.78,147.06,46.99,75,54,4.0
72,Port Elizabeth,ZA,2020-09-03 17:06:03,-33.92,25.57,62.6,77,19,6.93
73,Lorengau,PG,2020-09-03 17:09:16,-2.02,147.27,81.93,76,86,5.61
74,Latung,PH,2020-09-03 17:09:16,5.5,120.88,83.79,75,68,9.04
75,Hermanus,ZA,2020-09-03 17:09:16,-34.42,19.23,57.99,85,93,5.44
76,Namatanai,PG,2020-09-03 17:09:17,-3.67,152.43,79.72,82,88,4.16
77,Pangnirtung,CA,2020-09-03 17:09:17,66.15,-65.71,44.6,81,75,17.22
78,Kurchum,KZ,2020-09-03 17:09:17,48.57,83.65,74.7,36,100,18.48
79,Zeya,RU,2020-09-03 17:09:18,53.75,127.27,55.87,88,100,6.69
80,Khatanga,RU,2020-09-03 17:09:18,71.97,102.5,42.15,85,95,14.94
81,Nabire,ID,2020-09-03 17:09:18,-3.37,135.48,77.59,83,100,3.98
82,Maues,BR,2020-09-03 17:06:36,-3.38,-57.72,101.37,26,18,5.28
83,Dikson,RU,2020-09-03 17:09:19,73.51,80.55,40.53,94,6,12.41
84,Morwell,AU,2020-09-03 17:09:19,-38.23,146.4,50.0,72,12,4.88
85,Kabansk,RU,2020-09-03 17:09:19,52.05,106.65,48.2,93,0,4.47
86,Clyde River,CA,2020-09-03 17:09:20,70.47,-68.59,42.8,81,75,8.05
87,Saskylakh,RU,2020-09-03 17:09:20,71.92,114.08,49.66,82,100,12.97
88,Palmas Bellas,PA,2020-09-03 17:09:20,9.23,-80.09,82.0,74,12,8.01
89,Oga,IT,2020-09-03 17:09:20,46.46,10.35,62.6,33,0,8.05
90,Anton Lizardo,MX,2020-09-03 17:09:21,19.05,-95.98,87.8,70,40,6.93
91,Norman Wells,CA,2020-09-03 17:09:21,65.28,-126.83,44.6,87,75,4.7
92,Calais,FR,2020-09-03 17:09:21,50.92,1.83,66.99,87,88,4.0
93,Waycross,US,2020-09-03 17:09:22,31.21,-82.35,91.99,43,75,5.82
94,Broome,US,2020-09-03 17:09:22,42.25,-75.83,77.0,68,1,8.05
95,Brae,GB,2020-09-03 17:09:22,60.4,-1.35,57.2,87,20,10.29
96,Georgetown,MY,2020-09-03 17:09:22,5.41,100.34,82.0,83,20,4.7
97,Manzil Salim,TN,2020-09-03 17:09:23,35.86,8.48,62.6,100,75,4.7
98,Kodiak,US,2020-09-03 17:09:07,57.79,-152.41,47.66,78,73,5.1
99,Westport,US,2020-09-03 17:04:39,41.14,-73.36,84.0,42,1,9.17
100,Iwanai,JP,2020-09-03 17:09:23,42.97,140.51,72.43,86,7,8.88
101,East London,ZA,2020-09-03 17:04:55,-33.02,27.91,64.4,68,0,3.36
102,Chuy,UY,2020-09-03 17:09:24,-33.7,-53.46,54.5,78,76,11.56
103,Alugan,PH,2020-09-03 17:09:24,12.22,125.48,80.8,79,84,4.76
104,Urumqi,CN,2020-09-03 17:05:09,43.8,87.6,84.2,20,79,13.42
105,Wukari,NG,2020-09-03 17:09:24,7.85,9.78,80.55,85,74,2.77
106,Lata,PT,2020-09-03 17:09:25,40.16,-8.33,93.99,37,0,9.66
107,Severo-Kurilsk,RU,2020-09-03 17:09:25,50.68,156.12,54.34,93,100,11.48
108,Vardo,NO,2020-09-03 17:09:25,70.37,31.11,60.8,55,72,14.99
109,Marsaxlokk,MT,2020-09-03 17:09:25,35.84,14.54,80.6,69,20,8.05
110,Korgen,NO,2020-09-03 17:09:26,66.08,13.82,66.2,48,20,12.75
111,Shitanjing,CN,2020-09-03 17:09:26,39.23,106.34,66.88,26,0,6.82
112,Trinidad,BO,2020-09-03 17:09:26,-14.83,-64.9,80.6,51,26,3.36
113,Kavaratti,IN,2020-09-03 17:09:26,10.57,72.64,81.97,79,91,10.0
114,Yar-Sale,RU,2020-09-03 17:09:27,66.83,70.83,47.23,74,63,16.62
115,Ponta Do Sol,PT,2020-09-03 17:09:27,32.67,-17.1,72.0,66,34,1.16
116,Yumen,CN,2020-09-03 17:09:27,40.28,97.2,68.92,21,2,12.06
117,Barrow,US,2020-09-03 17:05:25,71.29,-156.79,37.4,86,90,17.22
118,Iqaluit,CA,2020-09-03 17:06:41,63.75,-68.51,50.0,57,75,12.75
119,Cabedelo,BR,2020-09-03 17:09:28,-6.98,-34.83,80.6,61,75,18.34
120,Asmar,AF,2020-09-03 17:09:28,35.03,71.36,74.82,60,2,1.99
121,Kaitangata,NZ,2020-09-03 17:09:29,-46.28,169.85,39.99,87,90,5.01
122,Faanui,PF,2020-09-03 17:09:29,-16.48,-151.75,77.07,79,33,16.04
123,Asfi,MA,2020-09-03 17:09:29,32.3,-9.24,74.03,76,15,10.18
124,Dunedin,NZ,2020-09-03 17:08:08,-45.87,170.5,45.0,74,76,4.0
125,Kismayo,SO,2020-09-03 17:09:30,-0.36,42.55,77.05,75,0,16.53
126,Adrar,MR,2020-09-03 17:09:30,20.5,-10.07,106.11,15,22,15.28
127,San Patricio,MX,2020-09-03 17:09:30,19.22,-104.7,86.0,74,75,3.98
128,Talcahuano,CL,2020-09-03 17:05:12,-36.72,-73.12,53.6,81,75,6.93
129,Chokurdakh,RU,2020-09-03 17:09:31,70.63,147.92,38.23,77,98,5.88
130,Codrington,AU,2020-09-03 17:09:31,-38.27,141.97,43.99,90,0,11.05
131,Avarua,CK,2020-09-03 17:09:31,-21.21,-159.78,75.2,88,91,14.99
132,Port Macquarie,AU,2020-09-03 17:09:32,-31.43,152.92,53.6,93,40,6.58
133,Bitung,ID,2020-09-03 17:09:32,1.45,125.18,73.4,94,20,1.12
134,Homnabad,IN,2020-09-03 17:09:32,17.77,77.13,75.78,83,29,5.03
135,Baoqing,CN,2020-09-03 17:09:32,46.33,132.21,70.83,71,84,24.25
136,Ngunguru,NZ,2020-09-03 17:09:33,-35.62,174.5,43.0,3,12,1.99
137,Grindavik,IS,2020-09-03 17:09:33,63.84,-22.43,48.2,70,75,27.51
138,Port Alfred,ZA,2020-09-03 17:09:33,-33.59,26.89,63.46,71,4,11.88
139,Pangkalanbuun,ID,2020-09-03 17:09:33,-2.68,111.62,75.36,96,99,0.09
140,Bilma,NE,2020-09-03 17:09:34,18.69,12.92,100.49,22,58,2.93
141,Mabopane,ZA,2020-09-03 17:09:34,-25.5,28.1,71.6,46,0,6.93
142,Dom Pedrito,BR,2020-09-03 17:09:34,-30.98,-54.67,56.64,76,91,6.6
143,Ballina,AU,2020-09-03 17:09:34,-28.87,153.57,64.4,72,0,10.29
144,Bluff,NZ,2020-09-03 17:09:35,-46.6,168.33,45.0,72,100,11.01
145,Olinda,BR,2020-09-03 17:09:35,-8.01,-34.86,77.0,78,75,21.92
146,Batticaloa,LK,2020-09-03 17:09:35,7.71,81.69,82.29,81,36,6.71
147,Mahebourg,MU,2020-09-03 17:09:35,-20.41,57.7,69.8,77,75,13.87
148,Maralal,KE,2020-09-03 17:09:35,1.1,36.7,67.68,56,87,7.02
149,Novopskov,UA,2020-09-03 17:09:36,49.55,39.09,79.72,39,48,15.23
150,Rio Grande,BR,2020-09-03 17:09:19,-32.03,-52.1,63.0,71,96,7.0
151,Palmer,US,2020-09-03 17:09:36,42.16,-72.33,82.0,44,75,8.05
152,Coquimbo,CL,2020-09-03 17:09:36,-29.95,-71.34,60.8,63,20,16.11
153,Te Anau,NZ,2020-09-03 17:09:37,-45.42,167.72,42.89,82,100,6.85
154,Ugoofaaru,MV,2020-09-03 17:09:37,5.67,73.0,81.82,79,62,17.13
155,Lebu,CL,2020-09-03 17:09:37,-37.62,-73.65,50.04,84,87,2.98
156,Gambela,ET,2020-09-03 17:09:37,8.25,34.58,74.12,85,84,1.48
157,Mount Isa,AU,2020-09-03 17:09:38,-20.73,139.5,57.2,31,0,5.68
158,Balabac,PH,2020-09-03 17:09:38,7.99,117.06,82.65,77,73,7.87
159,Saint George,US,2020-09-03 17:08:26,37.1,-113.58,87.01,18,1,4.7
160,Charters Towers,AU,2020-09-03 17:09:38,-20.1,146.27,60.55,94,0,6.6
161,Bilibino,RU,2020-09-03 17:09:39,68.05,166.44,28.47,96,23,5.39
162,Shushtar,IR,2020-09-03 17:09:39,32.05,48.86,100.4,19,4,2.24
163,Carman,CA,2020-09-03 17:09:39,49.5,-98.0,60.01,54,20,24.16
164,Zhangjiakou,CN,2020-09-03 17:09:39,40.81,114.88,57.16,52,0,4.83
165,Husavik,IS,2020-09-03 17:09:40,66.04,-17.34,42.8,93,90,19.46
166,Saurimo,AO,2020-09-03 17:09:40,-9.66,20.39,80.74,21,24,3.6
167,Naze,JP,2020-09-03 17:09:40,28.37,129.48,80.6,94,100,3.36
168,Bojnurd,IR,2020-09-03 17:09:41,37.47,57.33,75.2,10,0,6.93
169,Galle,LK,2020-09-03 17:07:58,6.04,80.22,80.47,87,70,7.67
170,Lazaro Cardenas,MX,2020-09-03 17:09:41,17.96,-102.2,85.12,72,65,1.57
171,Tuktoyaktuk,CA,2020-09-03 17:09:41,69.45,-133.04,44.6,87,75,13.87
172,Puerto Baquerizo Moreno,EC,2020-09-03 17:09:42,-0.9,-89.6,73.4,69,75,13.87
173,Baryatino,RU,2020-09-03 17:09:42,54.31,34.52,65.46,84,100,8.84
174,Byron Bay,AU,2020-09-03 17:09:42,-28.65,153.62,64.4,72,0,10.29
175,San Borja,BO,2020-09-03 17:09:42,-14.82,-66.85,97.12,23,33,3.47
176,Kampala,UG,2020-09-03 17:06:13,0.32,32.58,75.2,64,20,5.82
177,Butaritari,KI,2020-09-03 17:09:43,3.07,172.79,82.81,67,99,3.22
178,Acari,PE,2020-09-03 17:09:43,-15.43,-74.62,69.24,50,80,10.04
179,Nuuk,GL,2020-09-03 17:09:43,64.18,-51.72,48.2,49,75,2.24
180,Quatre Cocos,MU,2020-09-03 17:09:44,-20.21,57.76,69.8,77,75,13.87
181,Luba,GQ,2020-09-03 17:09:44,3.46,8.55,78.8,100,75,9.17
182,The Valley,AI,2020-09-03 17:09:14,18.22,-63.06,89.6,70,20,13.87
183,Sao Filipe,CV,2020-09-03 17:09:44,14.9,-24.5,79.47,79,38,9.71
184,Coos Bay,US,2020-09-03 17:08:37,43.37,-124.22,62.01,100,90,3.36
185,Tromso,NO,2020-09-03 17:09:45,69.65,18.96,64.4,45,0,26.4
186,Bronkhorstspruit,ZA,2020-09-03 17:09:45,-25.81,28.74,71.6,46,2,6.93
187,Chapais,CA,2020-09-03 17:09:45,49.78,-74.85,62.6,67,75,9.17
188,Caravelas,BR,2020-09-03 17:09:45,-17.71,-39.25,78.6,57,0,8.1
189,Geilo,NO,2020-09-03 17:09:46,60.53,8.21,45.0,86,100,6.15
190,Ancud,CL,2020-09-03 17:09:46,-41.87,-73.82,46.99,87,34,1.01
191,Sao Felix Do Xingu,BR,2020-09-03 17:09:46,-6.64,-51.99,101.66,16,1,4.83
192,Bozhou,CN,2020-09-03 17:09:46,33.88,115.77,66.81,69,0,5.93
193,Bozoum,CF,2020-09-03 17:09:47,6.32,16.38,73.26,88,63,1.95
194,Taoudenni,ML,2020-09-03 17:09:47,22.68,-3.98,113.0,10,44,13.69
195,Grand Island,US,2020-09-03 17:06:20,40.92,-98.34,71.01,37,1,23.04
196,Ekhabi,RU,2020-09-03 17:09:47,53.51,142.97,54.52,89,100,8.55
197,Daru,PG,2020-09-03 17:09:48,-9.08,143.21,76.98,87,98,18.43
198,Basingstoke,GB,2020-09-03 17:09:48,51.26,-1.09,64.99,93,90,13.87
199,Rudnyy,KZ,2020-09-03 17:09:48,52.96,63.12,46.4,65,38,8.95
200,Kingman,US,2020-09-03 17:09:48,35.19,-114.05,93.99,19,1,3.2
201,Aripuana,BR,2020-09-03 17:05:05,-9.17,-60.63,105.76,16,19,2.55
202,Port-Gentil,GA,2020-09-03 17:09:49,-0.72,8.78,78.8,78,75,17.29
203,Piracanjuba,BR,2020-09-03 17:09:49,-17.3,-49.02,91.13,20,0,5.61
204,Mecca,SA,2020-09-03 17:09:12,21.43,39.83,93.97,40,16,5.75
205,Laurel,US,2020-09-03 17:09:50,39.1,-76.85,89.01,58,40,5.35
206,Puerto Leguizamo,CO,2020-09-03 17:09:50,-0.19,-74.78,87.96,63,42,1.86
207,Aden,YE,2020-09-03 17:05:21,12.78,45.04,87.55,65,0,3.98
208,Cap Malheureux,MU,2020-09-03 17:09:50,-19.98,57.61,68.0,77,32,5.01
209,Miyang,CN,2020-09-03 17:09:51,24.4,103.44,65.89,85,99,1.23
210,Port Lincoln,AU,2020-09-03 17:09:51,-34.73,135.87,53.26,80,82,10.29
211,Ribeira Grande,PT,2020-09-03 17:09:51,38.52,-28.7,78.8,69,20,6.93
212,Atuona,PF,2020-09-03 17:09:51,-9.8,-139.03,78.04,78,8,20.04
213,Kaeo,NZ,2020-09-03 17:09:52,-35.1,173.78,43.0,3,5,1.99
214,Narsaq,GL,2020-09-03 17:09:52,60.92,-46.05,51.8,37,75,10.29
215,Oktyabrskiy,RU,2020-09-03 17:09:52,54.48,53.47,48.24,78,0,5.48
216,Samaipata,BO,2020-09-03 17:09:52,-18.15,-63.87,70.16,43,70,11.25
217,Cooma,AU,2020-09-03 17:09:03,-36.23,149.13,48.2,49,85,17.22
218,Sandpoint,US,2020-09-03 17:09:53,48.28,-116.55,68.0,45,1,2.21
219,Lodwar,KE,2020-09-03 17:09:53,3.12,35.6,90.79,26,0,5.93
220,Hasaki,JP,2020-09-03 17:09:53,35.73,140.83,79.0,88,75,2.24
221,Ivybridge,GB,2020-09-03 17:09:53,50.39,-3.92,66.99,99,100,1.99
222,Coihaique,CL,2020-09-03 17:09:54,-45.58,-72.07,48.2,45,75,8.05
223,Anna Paulowna,NL,2020-09-03 17:09:54,52.86,4.83,66.2,93,90,18.34
224,Riyadh,SA,2020-09-03 17:05:16,24.69,46.72,95.0,23,0,2.24
225,Egvekinot,RU,2020-09-03 17:09:54,66.32,-179.17,34.66,86,99,4.34
226,Bengkulu,ID,2020-09-03 17:09:55,-3.8,102.27,77.31,89,99,5.77
227,Manggar,ID,2020-09-03 17:09:55,-2.88,108.27,80.8,83,76,11.79
228,Yokadouma,CM,2020-09-03 17:09:55,3.52,15.05,73.65,91,99,0.83
229,Luwuk,ID,2020-09-03 17:09:55,-0.95,122.79,77.67,76,100,5.68
230,Yanam,IN,2020-09-03 17:09:56,16.73,82.22,80.6,88,40,4.7
231,Volga,RU,2020-09-03 17:09:56,57.95,38.39,57.38,73,85,9.17
232,Avera,US,2020-09-03 17:09:56,33.19,-82.53,91.0,59,1,4.7
233,Tevriz,RU,2020-09-03 17:09:56,57.51,72.4,45.95,94,88,10.38
234,Olafsvik,IS,2020-09-03 17:09:57,64.89,-23.71,47.73,71,93,19.39
235,Seoul,KR,2020-09-03 17:09:57,37.57,126.98,69.8,100,40,6.93
236,Beringovskiy,RU,2020-09-03 17:09:57,63.05,179.32,45.05,80,71,8.81
237,Huilong,CN,2020-09-03 17:09:57,31.81,121.66,81.0,79,0,5.99
238,Shishou,CN,2020-09-03 17:09:58,29.72,112.42,73.96,60,11,1.16
239,Dong Hoi,VN,2020-09-03 17:09:58,17.48,106.6,81.28,83,20,5.1
240,Tskaltubo,GE,2020-09-03 17:09:58,42.33,42.6,78.8,83,12,4.7
241,Torbat-E Jam,IR,2020-09-03 17:07:09,35.24,60.62,71.58,22,0,11.7
242,Hammerfest,NO,2020-09-03 17:09:18,70.66,23.68,62.6,48,2,13.87
243,Macau,MO,2020-09-03 17:09:59,22.2,113.55,86.0,84,6,2.24
244,Uyuni,BO,2020-09-03 17:09:59,-20.46,-66.83,56.34,21,4,19.69
245,Dali,CN,2020-09-03 17:09:59,25.7,100.18,63.54,80,100,3.6
246,Mayo,US,2020-09-03 17:10:00,38.89,-76.51,89.01,78,75,6.93
247,Huambo,AO,2020-09-03 17:10:00,-12.78,15.74,74.64,32,92,2.59
248,Buala,SB,2020-09-03 17:10:00,-8.14,159.59,81.3,79,98,10.18
249,Petropavlovsk-Kamchatskiy,RU,2020-09-03 17:10:01,53.05,158.65,51.8,100,100,6.71
250,Cidreira,BR,2020-09-03 17:10:01,-30.18,-50.21,64.09,69,78,14.47
251,Alice Town,BS,2020-09-03 17:10:01,25.72,-79.3,84.7,75,80,12.1
252,Nipawin,CA,2020-09-03 17:09:12,53.37,-104.0,53.6,62,1,18.34
253,Svetlogorsk,BY,2020-09-03 17:10:02,52.63,29.73,63.54,91,100,3.8
254,Zyryanka,RU,2020-09-03 17:10:02,65.75,150.85,36.7,81,0,2.91
255,Cotonou,BJ,2020-09-03 17:10:03,6.37,2.42,82.4,78,40,14.99
256,Yarmouth,US,2020-09-03 17:10:03,41.71,-70.23,75.0,100,90,5.82
257,Havelock,US,2020-09-03 17:10:03,34.88,-76.9,93.2,56,40,11.41
258,Hithadhoo,MV,2020-09-03 17:10:04,-0.6,73.08,82.13,76,36,13.0
259,Taywarah,AF,2020-09-03 17:10:04,33.35,64.42,48.42,46,0,7.25
260,Laguna,US,2020-09-03 17:10:04,38.42,-121.42,70.0,77,1,6.93
261,Karoi,ZW,2020-09-03 17:10:05,-16.81,29.69,65.97,48,15,5.97
262,Barreirinhas,BR,2020-09-03 17:10:05,-2.75,-42.83,90.79,43,48,11.07
263,Kedrovyy,RU,2020-09-03 17:10:05,56.17,91.82,68.0,68,40,8.95
264,Berlevag,NO,2020-09-03 17:10:05,70.86,29.09,62.6,51,54,24.16
265,Gigmoto,PH,2020-09-03 17:10:06,13.78,124.39,81.48,79,93,3.83
266,Balikpapan,ID,2020-09-03 17:10:06,-1.27,116.83,75.54,94,100,2.51
267,Howard Springs,AU,2020-09-03 17:10:06,-12.5,131.05,78.8,83,75,3.36
268,Hyeres,FR,2020-09-03 17:10:06,43.12,6.12,78.01,64,4,5.82
269,Trani,IT,2020-09-03 17:10:07,41.27,16.42,78.01,61,20,8.05
270,Nizhniy Kuranakh,RU,2020-09-03 17:10:07,58.84,125.49,52.34,65,67,3.11
271,Sovetskiy,RU,2020-09-03 17:10:07,61.36,63.58,44.67,83,52,8.97
272,Swidnik,PL,2020-09-03 17:10:07,51.22,22.7,66.2,59,0,4.7
273,Okha,RU,2020-09-03 17:10:08,53.57,142.95,54.59,89,100,9.01
274,Cockburn Town,TC,2020-09-03 17:10:08,21.46,-71.14,87.8,66,40,16.11
275,College,US,2020-09-03 17:10:08,64.86,-147.8,46.4,87,40,1.92
276,Tiksi,RU,2020-09-03 17:10:08,71.69,128.87,41.23,83,37,7.0
277,Pringsewu,ID,2020-09-03 17:10:09,-5.36,104.97,73.72,92,74,0.72
278,Kasama,ZM,2020-09-03 17:10:09,-10.21,31.18,67.69,43,19,7.4
279,Wajima,JP,2020-09-03 17:10:09,37.4,136.9,81.99,78,99,10.54
280,Angul,IN,2020-09-03 17:10:09,20.85,85.1,79.0,88,58,3.94
281,Solnechnyy,RU,2020-09-03 17:10:10,50.72,136.63,61.77,95,100,1.48
282,Vytegra,RU,2020-09-03 17:10:10,61.01,36.45,59.4,71,3,11.54
283,Sarrebourg,FR,2020-09-03 17:05:33,48.73,7.05,77.0,36,100,5.82
284,Itarema,BR,2020-09-03 17:10:10,-2.92,-39.92,85.69,52,44,19.73
285,Conceicao Do Araguaia,BR,2020-09-03 17:10:11,-8.26,-49.26,103.05,15,1,5.59
286,Thinadhoo,MV,2020-09-03 17:10:11,0.53,72.93,82.53,77,37,14.18
287,Evensk,RU,2020-09-03 17:10:11,61.95,159.23,41.92,68,7,8.63
288,Los Llanos De Aridane,ES,2020-09-03 17:10:12,28.66,-17.92,78.8,69,20,10.29
289,Yulara,AU,2020-09-03 17:10:12,-25.24,130.99,55.4,26,99,9.17
290,Pouembout,NC,2020-09-03 17:10:12,-21.13,164.9,61.47,74,52,6.44
291,Nikolskoye,RU,2020-09-03 17:10:12,59.7,30.79,68.0,72,93,8.95
292,Arraial Do Cabo,BR,2020-09-03 17:10:13,-22.97,-42.03,84.2,69,0,18.34
293,Atikokan,CA,2020-09-03 17:10:13,48.76,-91.62,51.17,86,100,11.61
294,Longhua,CN,2020-09-03 17:10:13,23.61,114.19,80.15,71,48,0.16
295,Tual,ID,2020-09-03 17:10:14,-5.67,132.75,79.59,84,60,20.83
296,Cayenne,GF,2020-09-03 17:10:14,4.93,-52.33,89.6,62,75,13.87
297,Pocone,BR,2020-09-03 17:10:14,-16.26,-56.62,107.46,13,0,2.46
298,Bull Savanna,JM,2020-09-03 17:10:14,17.89,-77.59,85.6,65,43,9.93
299,Shumikha,RU,2020-09-03 17:10:15,55.23,63.3,45.18,74,11,7.99
300,Tupik,RU,2020-09-03 17:10:15,54.43,119.93,48.0,84,100,2.59
301,Yellowknife,CA,2020-09-03 17:07:02,62.46,-114.35,43.0,81,20,10.29
302,Narwar,IN,2020-09-03 17:10:15,25.65,77.9,77.56,88,1,4.38
303,Necochea,AR,2020-09-03 17:10:15,-38.55,-58.74,54.0,72,0,5.01
304,Haines Junction,CA,2020-09-03 17:10:16,60.75,-137.51,47.3,72,98,4.79
305,Chernyshevskiy,RU,2020-09-03 17:10:16,63.01,112.47,42.85,95,8,5.06
306,Dalianwan,CN,2020-09-03 17:10:16,39.03,121.69,77.0,82,85,8.63
307,Newport,GB,2020-09-03 17:10:17,51.59,-3.0,66.0,71,65,4.0
308,Bay Roberts,CA,2020-09-03 17:10:17,47.6,-53.26,68.0,70,34,20.0
309,Souillac,MU,2020-09-03 17:10:17,-20.52,57.52,69.8,77,75,13.87
310,Alice Springs,AU,2020-09-03 17:10:17,-23.7,133.88,60.8,31,0,2.24
311,Sistranda,NO,2020-09-03 17:10:18,63.73,8.83,64.4,48,75,3.36
312,Salou,ES,2020-09-03 17:10:18,41.08,1.14,79.0,65,20,6.93
313,Hunterville,NZ,2020-09-03 17:10:19,-39.93,175.57,36.0,89,0,1.99
314,Sakaiminato,JP,2020-09-03 17:10:19,35.55,133.23,78.8,78,20,5.82
315,Kupino,RU,2020-09-03 17:10:19,54.37,77.3,50.54,76,79,12.41
316,Santa Teresa,VE,2020-09-03 17:10:19,10.23,-66.66,82.0,55,100,1.99
317,Bambous Virieux,MU,2020-09-03 17:10:20,-20.34,57.76,69.8,77,75,13.87
318,Kashi,CN,2020-09-03 17:10:20,39.45,75.98,69.8,40,97,15.66
319,Sorong,ID,2020-09-03 17:10:20,-0.88,131.25,78.58,84,100,5.08
320,Aksha,RU,2020-09-03 17:10:21,50.28,113.29,53.38,84,78,2.37
321,Talara,PE,2020-09-03 17:10:21,-4.58,-81.27,71.6,56,43,17.22
322,Riohacha,CO,2020-09-03 17:09:28,11.54,-72.91,85.73,64,100,4.56
323,Yilan,TW,2020-09-03 17:10:21,24.76,121.75,82.0,94,20,8.05
324,Nizhneangarsk,RU,2020-09-03 17:10:22,55.78,109.55,48.83,89,23,2.44
325,Ucluelet,CA,2020-09-03 17:07:14,48.93,-125.55,62.01,100,40,2.24
326,Doha,QA,2020-09-03 17:10:22,25.29,51.53,95.0,53,0,5.82
327,Mongar,BT,2020-09-03 17:10:23,27.27,91.24,62.37,93,58,2.53
328,Homer,US,2020-09-03 17:07:26,59.64,-151.55,51.01,93,90,4.7
329,Genc,TR,2020-09-03 17:10:23,38.75,40.56,78.1,17,2,9.8
330,Porirua,NZ,2020-09-03 17:10:24,-41.13,174.85,42.8,87,2,13.87
331,Muhldorf,DE,2020-09-03 17:10:24,48.25,12.53,71.01,87,97,0.34
332,Ahipara,NZ,2020-09-03 17:08:43,-35.17,173.17,48.97,83,0,9.19
333,Dingle,PH,2020-09-03 17:10:24,11.0,122.67,77.11,84,87,1.57
334,Meulaboh,ID,2020-09-03 17:10:25,4.14,96.13,78.55,83,91,4.54
335,Faya,SA,2020-09-03 17:10:25,18.39,42.45,73.4,77,40,6.93
336,High Prairie,CA,2020-09-03 17:08:19,55.43,-116.49,57.13,56,94,11.3
337,Kamenka,RU,2020-09-03 17:10:25,51.32,42.77,62.28,39,0,11.39
338,Vinh,VN,2020-09-03 17:10:26,18.67,105.67,81.01,81,91,3.42
339,Along,IN,2020-09-03 17:10:26,28.17,94.77,74.66,88,40,0.34
340,Campo Verde,BR,2020-09-03 17:10:26,-20.42,-54.07,89.6,33,20,8.05
341,Mehriz,IR,2020-09-03 17:10:26,31.59,54.43,82.4,12,0,9.17
342,Zhangye,CN,2020-09-03 17:10:27,38.93,100.45,68.02,25,0,4.23
343,Honningsvag,NO,2020-09-03 17:10:27,70.98,25.97,62.6,45,49,13.87
344,Tautira,PF,2020-09-03 17:10:27,-17.73,-149.15,73.4,83,20,3.36
345,Dong Xoai,VN,2020-09-03 17:10:27,11.53,106.92,76.55,93,23,4.07
346,Minnedosa,CA,2020-09-03 17:10:28,50.25,-99.84,55.4,62,40,24.16
347,Atyrau,KZ,2020-09-03 17:05:32,47.12,51.88,73.4,33,0,11.18
348,Huarmey,PE,2020-09-03 17:10:28,-10.07,-78.15,67.6,62,52,13.04
349,Acapulco,MX,2020-09-03 17:10:28,16.86,-99.89,86.0,79,90,4.7
350,Sainte-Anne-Des-Monts,CA,2020-09-03 17:10:29,49.12,-66.49,63.21,65,8,13.49
351,Hastings,GB,2020-09-03 17:10:29,50.86,0.57,64.99,91,98,11.01
352,Tuatapere,NZ,2020-09-03 17:10:29,-46.13,167.68,45.0,72,100,11.01
353,Broken Hill,AU,2020-09-03 17:10:30,-31.95,141.43,51.8,40,38,4.7
354,Gazojak,TM,2020-09-03 17:10:30,41.19,61.4,77.81,18,0,2.53
355,Pemba,MZ,2020-09-03 17:10:30,-12.97,40.52,77.0,78,20,17.22
356,Kavieng,PG,2020-09-03 17:10:30,-2.57,150.8,82.11,78,86,7.36
357,Victoria,HK,2020-09-03 17:10:31,22.29,114.16,86.0,74,0,5.97
358,Raga,SS,2020-09-03 17:10:31,8.46,25.68,72.82,92,98,2.08
359,Praia Da Vitoria,PT,2020-09-03 17:10:31,38.73,-27.07,78.8,65,40,1.36
360,Achikulak,RU,2020-09-03 17:10:32,44.55,44.84,79.02,28,0,11.59
361,Klaksvik,FO,2020-09-03 17:10:32,62.23,-6.59,51.8,87,75,16.11
362,Pineto,IT,2020-09-03 17:10:32,42.61,14.07,75.99,57,3,4.7
363,Tommot,RU,2020-09-03 17:10:32,58.96,126.29,50.47,70,74,2.64
364,San Cristobal,VE,2020-09-03 17:10:27,7.77,-72.22,86.0,62,40,6.93
365,Hualmay,PE,2020-09-03 17:10:33,-11.1,-77.61,66.49,65,89,11.92
366,Beloha,MG,2020-09-03 17:07:10,-25.17,45.05,60.21,73,0,11.23
367,Eyl,SO,2020-09-03 17:10:33,7.98,49.82,76.66,79,2,24.0
368,Saquena,PE,2020-09-03 17:10:34,-4.67,-73.52,97.21,40,46,0.94
369,Marrakesh,MA,2020-09-03 17:09:11,31.63,-8.01,98.6,20,20,6.93
370,Surajgarh,IN,2020-09-03 17:10:34,28.31,75.73,85.08,70,100,7.05
371,Shahapur,IN,2020-09-03 17:10:34,19.45,73.33,82.4,78,75,0.67
372,Toyooka,JP,2020-09-03 17:10:35,35.53,134.83,76.12,89,86,0.98
373,Constantine,DZ,2020-09-03 17:10:35,36.37,6.61,71.6,56,75,9.17
374,Kahului,US,2020-09-03 17:10:35,20.89,-156.47,77.0,69,20,8.05
375,Ostrovnoy,RU,2020-09-03 17:10:36,68.05,39.51,53.17,78,43,11.95
376,Diego De Almagro,CL,2020-09-03 17:10:36,-26.37,-70.05,77.5,14,0,8.34
377,Placido De Castro,BR,2020-09-03 17:10:36,-10.34,-67.19,103.96,24,55,1.1
378,Kirakira,SB,2020-09-03 17:10:37,-10.45,161.92,79.72,83,93,15.64
379,Kang,BW,2020-09-03 17:10:37,-23.68,22.79,77.36,27,10,6.15
380,Ilo,PE,2020-09-03 17:10:37,-17.64,-71.34,64.4,77,87,6.93
381,Nakhodka,RU,2020-09-03 17:10:37,42.83,132.89,68.81,86,44,9.42
382,Sitka,US,2020-09-03 17:10:38,57.05,-135.33,53.6,93,90,2.35
383,Jutai,BR,2020-09-03 17:10:38,-5.18,-68.9,94.26,43,10,4.27
384,Craigieburn,AU,2020-09-03 17:10:38,-37.6,144.95,50.0,70,0,12.75
385,Lannion,FR,2020-09-03 17:10:39,48.75,-3.42,68.0,77,90,10.29
386,Talnakh,RU,2020-09-03 17:10:39,69.49,88.4,44.6,87,72,22.37
387,Joshimath,IN,2020-09-03 17:10:39,30.57,79.57,67.73,60,100,0.81
388,Mareeba,AU,2020-09-03 17:10:39,-17.0,145.43,69.8,88,90,9.17
389,Mount Gambier,AU,2020-09-03 17:10:40,-37.83,140.77,42.8,93,10,8.05
390,Requena,ES,2020-09-03 17:10:40,39.49,-1.1,79.0,50,2,5.99
391,Guiratinga,BR,2020-09-03 17:10:40,-16.35,-53.76,97.2,14,25,6.78
392,Riwaka,NZ,2020-09-03 17:10:40,-41.08,173.0,45.0,85,18,2.71
393,Rawson,AR,2020-09-03 17:10:41,-43.3,-65.1,56.84,42,96,18.72
394,Tashtagol,RU,2020-09-03 17:10:41,52.77,87.89,55.96,82,58,4.32
395,Benghazi,LY,2020-09-03 17:10:41,32.12,20.07,81.61,67,0,18.32
396,Qasigiannguit,GL,2020-09-03 17:10:41,68.82,-51.19,44.6,36,5,10.29
397,Valdosta,US,2020-09-03 17:10:42,30.83,-83.28,90.0,59,20,3.8
398,Eydhafushi,MV,2020-09-03 17:10:42,5.1,73.07,82.06,78,98,18.75
399,Shumskiy,RU,2020-09-03 17:10:42,54.83,99.13,57.63,84,32,4.27
400,Berberati,CF,2020-09-03 17:10:42,4.26,15.79,73.45,95,70,1.83
401,Kilindoni,TZ,2020-09-03 17:10:43,-7.91,39.67,77.38,77,8,17.38
402,Colomiers,FR,2020-09-03 17:10:43,43.62,1.35,84.2,23,0,5.82
403,Kiruna,SE,2020-09-03 17:10:43,67.86,20.23,57.2,62,8,14.99
404,Aksarka,RU,2020-09-03 17:10:44,66.56,67.8,44.11,75,14,15.35
405,Anshun,CN,2020-09-03 17:10:44,26.25,105.93,65.75,94,94,2.89
406,Chauk,MM,2020-09-03 17:08:03,20.88,94.82,84.0,72,88,5.55
407,Bereda,ES,2020-09-03 17:10:44,43.27,-7.54,87.01,35,0,4.0
408,Hami,CN,2020-09-03 17:10:45,42.8,93.45,82.33,15,41,6.17
409,Mnogovershinnyy,RU,2020-09-03 17:10:45,53.94,139.92,49.08,98,100,5.06
410,Geraldton,AU,2020-09-03 17:10:45,-28.77,114.6,48.2,93,97,6.93
411,Araouane,ML,2020-09-03 17:10:46,18.9,-3.53,98.74,27,61,8.14
412,Isangel,VU,2020-09-03 17:10:46,-19.55,169.27,66.25,73,46,17.09
413,Cabo San Lucas,MX,2020-09-03 17:07:29,22.89,-109.91,86.0,70,5,3.36
414,Nakhon Thai,TH,2020-09-03 17:10:46,17.1,100.84,76.93,84,15,1.92
415,Astoria,US,2020-09-03 17:06:47,46.19,-123.83,66.99,82,1,3.96
416,Shubarkuduk,KZ,2020-09-03 17:10:47,49.14,56.49,65.26,37,0,9.6
417,Ejido,VE,2020-09-03 17:10:47,8.55,-71.24,79.57,51,85,4.74
418,Da Lat,VN,2020-09-03 17:10:47,11.95,108.44,61.74,100,49,1.52
419,Orapa,BW,2020-09-03 17:10:48,-21.28,25.37,76.3,29,0,10.33
420,Camopi,GF,2020-09-03 17:10:48,3.17,-52.32,94.44,41,18,4.94
421,Vanimo,PG,2020-09-03 17:10:48,-2.67,141.3,79.07,86,99,5.48
422,Winnemucca,US,2020-09-03 17:06:42,40.97,-117.74,75.2,19,1,3.2
423,Puerto Narino,CO,2020-09-03 17:10:49,-3.77,-70.38,87.8,70,40,3.36
424,North Bend,US,2020-09-03 17:10:49,43.41,-124.22,62.01,100,90,3.36
425,San Ramon De La Nueva Oran,AR,2020-09-03 17:10:49,-23.13,-64.33,73.0,43,0,1.99
426,Delta Del Tigre,UY,2020-09-03 17:10:50,-34.76,-56.39,52.0,81,90,11.41
427,Benguela,AO,2020-09-03 17:10:50,-12.58,13.41,69.8,83,75,4.7
428,Izhma,RU,2020-09-03 17:10:50,65.01,53.91,49.24,75,100,4.45
429,Lompoc,US,2020-09-03 17:10:51,34.64,-120.46,59.0,87,90,3.36
430,Kinshasa,CD,2020-09-03 17:10:51,-4.32,15.32,82.4,61,94,9.17
431,Salalah,OM,2020-09-03 17:10:51,17.02,54.09,80.6,83,40,4.7
432,Hofn,IS,2020-09-03 17:10:51,64.25,-15.21,48.2,70,90,19.46
433,Hurricane,US,2020-09-03 17:10:52,37.18,-113.29,86.0,19,0,0.13
434,Siguiri,GN,2020-09-03 17:10:52,11.67,-9.5,78.31,88,80,1.99
435,Gardelegen,DE,2020-09-03 17:07:06,52.53,11.4,69.01,61,100,8.01
436,Bathsheba,BB,2020-09-03 17:10:52,13.22,-59.52,82.4,74,75,19.46
437,Nayudupeta,IN,2020-09-03 17:10:52,13.9,79.9,82.63,78,70,5.37
438,Omsukchan,RU,2020-09-03 17:10:53,62.53,155.8,33.75,90,68,3.22
439,Tigil,RU,2020-09-03 17:10:53,57.8,158.67,42.42,91,100,4.74
440,Durban,ZA,2020-09-03 17:10:53,-29.86,31.03,68.0,88,19,11.41
441,Panjakent,TJ,2020-09-03 17:10:53,39.5,67.61,73.4,40,3,2.24
442,Dinguiraye,GN,2020-09-03 17:10:54,11.3,-10.72,76.55,92,85,2.42
443,Touros,BR,2020-09-03 17:10:54,-5.2,-35.46,84.2,62,40,18.34
444,Anadyr,RU,2020-09-03 17:10:54,64.75,177.48,41.0,93,20,11.18
445,Hambantota,LK,2020-09-03 17:08:58,6.12,81.12,81.61,79,25,12.62
446,Modra,SK,2020-09-03 17:10:55,48.33,17.31,71.6,40,0,8.05
447,Jacqueville,CI,2020-09-03 17:10:55,5.21,-4.41,80.6,78,75,10.29
448,Ulladulla,AU,2020-09-03 17:10:55,-35.35,150.47,57.2,71,89,5.82
449,Gubkinskiy,RU,2020-09-03 17:10:56,64.43,76.5,52.5,67,87,15.01
450,Coro,VE,2020-09-03 17:10:56,11.4,-69.67,84.9,67,86,6.49
451,Normandin,CA,2020-09-03 17:10:56,48.83,-72.53,68.0,64,75,10.29
452,Banda Aceh,ID,2020-09-03 17:10:56,5.56,95.32,80.96,74,88,7.29
453,Liverpool,GB,2020-09-03 17:10:57,53.41,-2.98,66.2,63,40,17.22
454,Mindif,CM,2020-09-03 17:10:57,10.4,14.44,78.8,83,20,1.12
455,Cieza,ES,2020-09-03 17:10:57,38.24,-1.42,84.2,37,20,12.75
456,Vung Tau,VN,2020-09-03 17:10:57,10.35,107.08,83.7,81,82,9.44
457,Krasnoselkup,RU,2020-09-03 17:10:58,65.7,82.47,47.08,77,33,9.4
458,Manga,BF,2020-09-03 17:10:58,11.66,-1.07,81.84,79,86,6.04
459,Muravlenko,RU,2020-09-03 17:10:58,63.79,74.52,50.83,74,76,18.41
460,Maumere,ID,2020-09-03 17:10:59,-8.62,122.21,76.75,76,64,3.69
461,Nyurba,RU,2020-09-03 17:10:59,63.28,118.33,47.44,94,0,4.79
462,Sarkand,KZ,2020-09-03 17:10:59,45.41,79.92,67.48,46,100,7.4
463,Namibe,AO,2020-09-03 17:10:59,-15.2,12.15,64.35,74,7,6.02
464,Lavrentiya,RU,2020-09-03 17:11:00,65.58,-171.0,39.36,87,100,8.77
465,Comodoro Rivadavia,AR,2020-09-03 17:10:58,-45.87,-67.5,55.4,37,40,19.46
466,Miyako,JP,2020-09-03 17:11:00,39.64,141.95,76.15,92,55,5.97
467,Abu Kamal,SY,2020-09-03 17:09:05,34.45,40.92,94.89,11,6,5.53
468,Hamilton,US,2020-09-03 17:10:45,39.18,-84.53,81.0,83,75,3.36
469,Mandalgovi,MN,2020-09-03 17:11:01,45.76,106.27,55.71,68,0,11.43
470,Alofi,NU,2020-09-03 17:11:01,-19.06,-169.92,75.2,94,100,4.7
471,Coolum Beach,AU,2020-09-03 17:11:01,-26.53,153.1,61.0,89,1,5.84
472,Follonica,IT,2020-09-03 17:11:02,42.93,10.76,81.0,46,1,8.81
473,Sur,OM,2020-09-03 17:11:02,22.57,59.53,84.61,57,91,1.57
474,Rafai,CF,2020-09-03 17:11:02,4.95,23.92,71.87,95,89,2.64
475,Richards Bay,ZA,2020-09-03 17:11:02,-28.78,32.04,66.96,80,0,7.92
476,Snezhnogorsk,RU,2020-09-03 17:11:03,69.19,33.25,59.0,62,34,6.71
477,Half Moon Bay,US,2020-09-03 17:07:35,37.46,-122.43,64.0,93,90,8.37
478,Mezen,RU,2020-09-03 17:11:03,65.85,44.24,51.26,76,42,5.23
479,Sarakhs,IR,2020-09-03 17:11:04,36.54,61.16,82.4,28,0,9.98
480,Kisangani,CD,2020-09-03 17:11:04,0.52,25.2,79.25,68,53,0.63
481,Warstein,DE,2020-09-03 17:11:04,51.45,8.37,60.01,87,75,13.87
482,Bac Lieu,VN,2020-09-03 17:11:05,9.29,105.72,80.83,82,90,9.1
483,Ossora,RU,2020-09-03 17:11:05,59.24,163.07,45.99,70,23,11.07
484,Sao Jose Da Coroa Grande,BR,2020-09-03 17:11:05,-8.9,-35.15,78.08,70,56,14.34
485,Siddipet,IN,2020-09-03 17:11:05,18.1,78.85,76.87,83,89,4.23
486,Cradock,ZA,2020-09-03 17:11:06,-32.16,25.62,61.97,28,0,1.28
487,Abu Dhabi,AE,2020-09-03 17:10:53,24.47,54.37,96.8,63,1,6.93
488,Fallon,US,2020-09-03 17:11:06,39.47,-118.78,84.0,25,20,3.36
489,Tashigang,BT,2020-09-03 17:11:06,27.33,91.55,70.72,73,59,2.1
490,Guerrero,MX,2020-09-03 17:11:06,17.67,-100.0,81.5,51,3,3.69
491,Raton,US,2020-09-03 17:11:07,36.9,-104.44,75.2,23,1,20.8
492,Sirvintos,LT,2020-09-03 17:11:07,55.05,24.95,64.99,67,3,6.93
493,Linhares,BR,2020-09-03 17:11:08,-19.39,-40.07,82.94,48,76,8.72
494,La Ronge,CA,2020-09-03 17:11:08,55.1,-105.28,51.8,62,20,16.11
495,Carballo,ES,2020-09-03 17:11:08,43.21,-8.69,77.0,61,0,5.82
496,Xuddur,SO,2020-09-03 17:11:08,4.12,43.89,83.37,33,58,13.33
497,Shirokiy,RU,2020-09-03 17:11:09,49.76,129.52,67.5,89,64,25.3
498,Tsumeb,NA,2020-09-03 17:11:09,-19.23,17.72,78.33,32,64,8.14
499,Gat,IL,2020-09-03 17:11:09,31.61,34.76,87.01,7,0,1.01
500,Yuncheng,CN,2020-09-03 17:11:09,35.02,110.99,69.3,37,0,4.61
501,Kieta,PG,2020-09-03 17:11:10,-6.22,155.63,79.59,74,94,3.87
502,Caorle,IT,2020-09-03 17:11:10,45.6,12.88,77.0,60,2,3.44
503,Krasnyy Yar,RU,2020-09-03 17:11:10,46.53,48.35,78.8,22,52,6.71
504,Sikasso,ML,2020-09-03 17:11:11,10.92,-7.0,76.19,91,100,1.95
505,Tonala,MX,2020-09-03 17:11:11,20.62,-103.23,77.0,69,75,2.06
506,Swakopmund,NA,2020-09-03 17:11:11,-22.68,14.53,64.4,52,0,10.29
507,Changji,CN,2020-09-03 17:11:12,44.02,87.32,84.2,20,80,13.42
508,Hearst,CA,2020-09-03 17:11:12,49.68,-83.67,59.14,92,100,17.31
509,Menongue,AO,2020-09-03 17:11:12,-14.66,17.69,79.57,26,68,6.04
510,Jardim,BR,2020-09-03 17:08:27,-21.48,-56.14,91.26,32,17,5.14
511,Kasongo-Lunda,CD,2020-09-03 17:11:12,-6.47,16.82,85.24,47,96,1.3
512,Zhanakorgan,KZ,2020-09-03 17:11:13,43.91,67.25,80.85,20,0,7.25
513,Rosetown,CA,2020-09-03 17:11:13,51.55,-108.0,60.01,60,62,11.99
514,Zambezi,ZM,2020-09-03 17:11:13,-13.54,23.1,79.48,24,54,5.86
515,Orvieto,IT,2020-09-03 17:11:13,42.72,12.11,75.99,52,34,4.0
516,Ahuimanu,US,2020-09-03 17:11:14,21.44,-157.84,78.01,69,40,4.7
517,Ascension,US,2020-09-03 17:11:14,30.22,-90.9,91.0,59,40,3.36
518,Wanaka,NZ,2020-09-03 17:11:14,-44.7,169.15,39.78,72,98,6.33
519,Marsa Matruh,EG,2020-09-03 17:11:15,31.35,27.25,82.4,69,40,11.41
520,Fochville,ZA,2020-09-03 17:11:15,-26.49,27.49,66.0,36,72,3.71
521,Shimoda,JP,2020-09-03 17:11:15,34.67,138.95,73.0,94,97,1.01
522,Calama,CL,2020-09-03 17:11:15,-22.47,-68.93,69.8,2,0,13.87
523,Wilmington,US,2020-09-03 17:09:34,34.23,-77.94,96.01,56,40,5.82
524,Afua,BR,2020-09-03 17:11:16,-0.16,-50.39,92.12,48,21,8.52
525,Aklavik,CA,2020-09-03 17:11:16,68.22,-135.01,48.2,100,90,4.7
526,Baglung,NP,2020-09-03 17:11:16,28.27,83.59,70.57,78,100,1.48
527,Abriaqui,CO,2020-09-03 17:11:17,6.63,-76.06,78.8,50,40,2.24
528,Stepnyak,KZ,2020-09-03 17:11:17,52.83,70.78,45.93,67,45,8.41
529,Erdenet,MN,2020-09-03 17:11:17,49.03,104.08,50.43,90,35,3.56
530,West Plains,US,2020-09-03 17:11:18,36.73,-91.85,77.0,83,90,6.93
531,Morro Bay,US,2020-09-03 17:10:15,35.37,-120.85,70.0,82,20,3.36
532,Roma,US,2020-09-03 17:11:18,43.21,-75.46,77.0,50,1,4.7
533,Pahalgam,IN,2020-09-03 17:11:19,34.03,75.33,59.02,64,4,3.24
534,Alta Floresta,BR,2020-09-03 17:11:19,-9.88,-56.09,105.37,14,25,5.28
535,Portland,US,2020-09-03 17:09:32,45.52,-122.68,75.0,68,1,4.14
536,Vanavara,RU,2020-09-03 17:11:19,60.34,102.28,52.16,94,100,6.31
537,Lagoa,PT,2020-09-03 17:11:20,39.05,-27.98,73.62,74,6,1.81
538,Deputatskiy,RU,2020-09-03 17:11:20,69.3,139.9,26.51,99,0,2.39
539,Catuday,PH,2020-09-03 17:11:20,16.29,119.81,81.34,77,99,2.77
540,Tsagan Aman,RU,2020-09-03 17:11:21,47.56,46.72,75.0,62,11,10.89
541,Port Hedland,AU,2020-09-03 17:11:21,-20.32,118.57,68.0,56,0,5.82
542,Nuevo Laredo,MX,2020-09-03 17:08:46,27.48,-99.52,87.8,62,40,10.29
543,Mingguang,CN,2020-09-03 17:11:21,32.78,117.96,68.9,84,0,4.59
544,Asyut,EG,2020-09-03 17:11:22,27.18,31.18,93.2,36,0,10.29
545,Arlit,NE,2020-09-03 17:11:22,18.74,7.39,82.31,50,48,17.05
546,Sterling,US,2020-09-03 17:07:15,39.01,-77.43,90.0,62,75,4.7
547,Sibut,CF,2020-09-03 17:11:23,5.72,19.07,74.19,90,98,2.62
548,Silopi,TR,2020-09-03 17:11:23,37.25,42.47,91.44,12,0,11.59
549,Pendleton,US,2020-09-03 17:06:31,45.67,-118.79,81.0,40,1,5.82
550,Navoi,UZ,2020-09-03 17:11:23,40.08,65.38,77.0,23,0,8.16
551,Taltal,CL,2020-09-03 17:11:24,-25.4,-70.48,64.09,51,3,5.68
552,Nara,JP,2020-09-03 17:11:24,34.69,135.8,82.0,59,89,3.06
553,Pailon,BO,2020-09-03 17:11:24,-17.65,-62.75,77.0,44,100,14.99
554,Urubicha,BO,2020-09-03 17:11:24,-15.38,-62.95,101.75,15,0,3.51
555,Saint Anthony,US,2020-09-03 17:08:31,45.02,-93.22,66.99,52,40,19.46
556,Nenagh,IE,2020-09-03 17:11:25,52.86,-8.2,60.8,72,75,17.22
557,Atuntaqui,EC,2020-09-03 17:11:25,0.33,-78.22,69.8,43,40,4.7
558,Awbari,LY,2020-09-03 17:11:25,26.59,12.78,98.42,9,0,9.1
559,Sept-Iles,CA,2020-09-03 17:11:26,50.2,-66.38,64.4,68,40,10.29
560,Pizarro,CO,2020-09-03 17:11:26,4.95,-77.37,80.49,82,32,6.71
561,Mayya,RU,2020-09-03 17:11:26,61.73,130.28,51.8,87,0,4.47
562,Aswan,EG,2020-09-03 17:11:27,24.09,32.91,94.33,10,0,7.05
563,Esso,RU,2020-09-03 17:11:27,55.93,158.7,45.09,83,100,7.29
564,Port Hardy,CA,2020-09-03 17:11:27,50.7,-127.42,60.8,77,75,2.24
565,Cumaral,CO,2020-09-03 17:11:27,4.27,-73.49,84.2,70,40,4.27
566,San Jeronimo,PE,2020-09-03 17:11:28,-11.95,-75.28,62.4,38,30,4.59
567,Pregradnaya,RU,2020-09-03 17:11:28,43.95,41.2,69.64,58,17,3.65
568,Kununurra,AU,2020-09-03 17:11:28,-15.77,128.73,75.2,65,0,6.2
569,Port Shepstone,ZA,2020-09-03 17:11:29,-30.74,30.45,65.79,83,3,1.07
570,Vila Franca Do Campo,PT,2020-09-03 17:11:29,37.72,-25.43,75.2,73,75,6.93
571,Kirovo-Chepetsk,RU,2020-09-03 17:11:30,58.55,50.04,47.93,76,78,2.51
572,Ewa Beach,US,2020-09-03 17:11:30,21.32,-158.01,78.01,78,1,4.7
573,Luanda,AO,2020-09-03 17:11:30,-8.84,13.23,75.2,78,75,8.05
574,Kondinskoye,RU,2020-09-03 17:11:31,59.65,67.41,48.09,85,98,13.62
575,Manyana,BW,2020-09-03 17:11:31,-23.4,21.72,79.34,24,67,7.61
576,Margate,GB,2020-09-03 17:11:32,51.38,1.39,69.01,77,94,8.01
577,Sinnamary,GF,2020-09-03 17:11:32,5.38,-52.95,83.82,77,8,12.55
578,Karancskeszi,HU,2020-09-03 17:11:32,48.16,19.7,68.0,49,20,5.82
579,Guisa,CU,2020-09-03 17:11:33,20.25,-76.54,87.8,62,75,17.22
580,Narang,PK,2020-09-03 17:11:33,31.91,74.52,78.8,88,90,2.24
581,Praia,CV,2020-09-03 17:11:33,14.92,-23.51,87.8,58,40,16.11
582,Nanortalik,GL,2020-09-03 17:11:33,60.14,-45.24,47.98,53,100,11.23
583,Bago,MM,2020-09-03 17:11:34,17.34,96.48,80.6,94,75,3.36
584,Luena,AO,2020-09-03 17:11:34,-11.78,19.92,76.01,25,35,3.94
585,Presidencia Roque Saenz Pena,AR,2020-09-03 17:11:34,-26.79,-60.44,72.79,36,0,4.61
586,Alpena,US,2020-09-03 17:11:34,45.06,-83.43,77.0,47,1,19.46
587,Henties Bay,NA,2020-09-03 17:11:35,-22.12,14.28,57.0,86,0,1.01
588,Auki,SB,2020-09-03 17:11:35,-8.77,160.7,79.02,83,99,5.06
589,Haukipudas,FI,2020-09-03 17:11:35,65.18,25.35,63.0,77,90,3.36
590,Baoding,CN,2020-09-03 17:09:49,38.85,115.49,66.09,49,0,5.53
591,Tanout,NE,2020-09-03 17:11:36,14.97,8.89,90.82,38,63,6.55
592,Valenza,IT,2020-09-03 17:11:36,45.01,8.64,80.01,59,3,2.17
593,Jonesboro,US,2020-09-03 17:07:58,35.84,-90.7,82.99,83,20,6.93
594,Bam,IR,2020-09-03 17:07:08,29.11,58.36,78.58,16,0,11.88
595,Salto,UY,2020-09-03 17:06:57,-31.38,-57.97,54.0,81,90,8.05
596,Magdagachi,RU,2020-09-03 17:11:37,53.45,125.8,55.36,87,100,8.75
597,Voi,KE,2020-09-03 17:11:37,-3.39,38.56,72.12,53,45,13.06
598,Rochegda,RU,2020-09-03 17:11:37,62.8,43.25,51.35,82,87,4.61
599,Bonavista,CA,2020-09-03 17:11:37,48.65,-53.11,66.99,66,82,7.0
600,Pachino,IT,2020-09-03 17:11:38,36.72,15.09,80.01,72,99,5.01
601,Mogok,MM,2020-09-03 17:08:03,22.92,96.5,67.1,100,100,2.21
602,Conde,BR,2020-09-03 17:11:38,-7.26,-34.91,80.6,61,75,18.34
603,Plettenberg Bay,ZA,2020-09-03 17:11:39,-34.05,23.37,60.42,82,34,8.52
604,Oudtshoorn,ZA,2020-09-03 17:11:39,-33.59,22.2,59.0,87,45,10.29
605,Diapaga,BF,2020-09-03 17:11:39,12.07,1.79,80.31,85,83,3.98
606,Codajas,BR,2020-09-03 17:11:39,-3.84,-62.06,101.8,24,7,5.08
607,Constitucion,CL,2020-09-03 17:11:40,-35.33,-72.42,55.65,60,0,5.41
608,Inhambane,MZ,2020-09-03 17:11:40,-23.86,35.38,68.0,68,20,2.24
609,Ajdabiya,LY,2020-09-03 17:11:40,30.76,20.23,88.92,39,0,15.5
610,San Quintin,MX,2020-09-03 17:11:40,30.48,-115.95,72.9,73,19,8.37
611,Walvis Bay,NA,2020-09-03 17:11:41,-22.96,14.51,64.4,52,0,10.29
612,Qaqortoq,GL,2020-09-03 17:11:41,60.72,-46.03,48.2,49,75,10.29
613,Katherine,AU,2020-09-03 17:11:41,-14.47,132.27,78.8,39,0,2.24
614,Nelson Bay,AU,2020-09-03 17:11:42,-32.72,152.15,63.0,76,0,8.05
615,Kirkwall,GB,2020-09-03 17:11:42,58.98,-2.96,59.0,72,20,18.34
616,Puerto Colombia,CO,2020-09-03 17:10:54,10.99,-74.95,86.0,70,40,5.82
617,Sambava,MG,2020-09-03 17:11:43,-14.27,50.17,72.34,74,5,18.23
618,San Juan,AR,2020-09-03 17:09:15,-31.54,-68.54,67.14,25,0,4.12
619,Oktyabrskoye,RU,2020-09-03 17:11:43,43.06,44.74,71.6,73,40,8.95
620,Sao Joao Da Barra,BR,2020-09-03 17:11:00,-21.64,-41.05,84.2,45,20,16.11
621,Nizhnyaya Tavda,RU,2020-09-03 17:11:43,57.67,66.17,45.99,85,87,10.51
622,Gemena,CD,2020-09-03 17:11:44,3.25,19.77,73.92,94,50,3.02
623,Hobyo,SO,2020-09-03 17:11:44,5.35,48.53,76.75,80,94,27.58
624,Stromness,GB,2020-09-03 17:11:44,58.97,-3.3,59.0,72,20,18.34
625,Buraydah,SA,2020-09-03 17:11:45,26.33,43.98,98.6,25,40,10.29
626,Mantua,IT,2020-09-03 17:11:45,45.17,10.78,78.01,50,0,1.01
627,Guangzhou,CN,2020-09-03 17:11:45,23.12,113.25,91.0,70,71,2.24
628,Shanghai,CN,2020-09-03 17:10:44,31.22,121.46,81.0,65,0,6.71
629,Kaliua,TZ,2020-09-03 17:11:45,-5.06,31.79,76.66,25,0,5.08
630,Harper,LR,2020-09-03 17:11:46,4.38,-7.72,76.55,87,98,10.92
631,Lugovoy,KZ,2020-09-03 17:11:46,42.95,72.76,71.42,39,62,15.08
632,Lamu,KE,2020-09-03 17:11:46,-2.27,40.9,75.97,78,3,14.7
633,Ha Giang,VN,2020-09-03 17:11:47,22.83,104.98,80.13,69,63,0.58
634,Majene,ID,2020-09-03 17:11:47,-3.54,118.97,77.77,86,92,10.02
635,Koroni,GR,2020-09-03 17:11:47,36.8,21.95,88.0,39,0,13.87
636,Vestmannaeyjar,IS,2020-09-03 17:11:47,63.44,-20.27,51.8,71,75,20.8
637,Clarence Town,AU,2020-09-03 17:11:48,-32.58,151.78,63.0,76,0,8.05
638,Khategaon,IN,2020-09-03 17:11:48,22.6,76.92,76.01,84,39,2.86
639,Tongren,CN,2020-09-03 17:11:48,27.72,109.19,70.97,83,68,2.35
640,Potosi,BO,2020-09-03 17:09:43,-19.58,-65.75,58.37,16,49,9.98
641,Mayumba,GA,2020-09-03 17:11:49,-3.43,10.66,74.62,85,100,8.77
642,Muzhi,RU,2020-09-03 17:11:49,65.37,64.67,45.79,69,87,13.89
643,Balanesti,RO,2020-09-03 17:11:49,45.07,23.4,68.29,74,95,3.69
644,Ulaangom,MN,2020-09-03 17:11:49,49.98,92.07,62.01,52,76,3.58
645,Kindu,CD,2020-09-03 17:11:50,-2.95,25.95,76.14,75,47,0.96
646,Burtunay,RU,2020-09-03 17:11:50,42.99,46.63,65.17,75,97,3.71
647,Nyrob,RU,2020-09-03 17:11:50,60.73,56.72,41.27,84,65,3.91
648,Salinopolis,BR,2020-09-03 17:11:51,-0.61,-47.36,84.65,68,60,12.68
649,Matay,EG,2020-09-03 17:11:51,28.42,30.78,92.98,14,0,9.66
650,Sisimiut,GL,2020-09-03 17:11:51,66.94,-53.67,49.6,49,5,3.11
651,Jiazi,CN,2020-09-03 17:11:51,22.88,116.07,82.15,82,3,7.29
652,Carnot,CF,2020-09-03 17:11:52,4.94,15.87,74.79,88,96,2.98
653,Zhigansk,RU,2020-09-03 17:11:52,66.77,123.37,49.89,92,100,18.66
654,Sawakin,SD,2020-09-03 17:11:52,19.11,37.33,92.88,40,52,8.37
655,Xichang,CN,2020-09-03 17:11:52,27.9,102.26,68.05,72,99,2.62
656,Edendale,ZA,2020-09-03 17:11:53,-29.65,30.31,64.99,81,7,1.74
657,Santiago De Cao,PE,2020-09-03 17:11:53,-7.96,-79.24,64.65,71,22,15.14
658,Sibul,PH,2020-09-03 17:11:53,15.17,121.06,77.83,88,100,3.62
659,Manta,EC,2020-09-03 17:10:21,-0.95,-80.73,73.4,88,90,5.82
660,Isabela,PH,2020-09-03 17:11:54,6.71,121.97,78.93,82,64,0.25
661,Bellefontaine,US,2020-09-03 17:11:54,40.36,-83.76,79.0,88,75,8.05
662,Gimli,CA,2020-09-03 17:11:54,50.63,-96.99,57.99,99,36,5.99
663,Kikwit,CD,2020-09-03 17:11:55,-5.04,18.82,84.11,50,91,2.24
664,Tonstad,NO,2020-09-03 17:11:55,58.66,6.72,57.99,93,100,7.09
665,Lambarene,GA,2020-09-03 17:11:55,-0.7,10.24,80.38,69,83,4.92
666,Poum,NC,2020-09-03 17:11:55,-20.23,164.02,68.22,67,11,14.94
667,Nouakchott,MR,2020-09-03 17:08:57,18.09,-15.98,91.4,63,75,13.87
668,Bontang,ID,2020-09-03 17:11:56,0.13,117.5,77.4,88,100,6.22
669,Zheleznodorozhnyy,RU,2020-09-03 17:11:56,55.75,38.0,68.0,63,87,8.95
670,Qingdao,CN,2020-09-03 17:09:32,36.1,120.37,64.4,77,0,4.47
671,Jishu,CN,2020-09-03 17:11:56,44.32,126.8,58.5,93,100,29.51
672,Mahon,ES,2020-09-03 17:11:57,39.89,4.27,78.8,50,20,1.12
673,Altamira,BR,2020-09-03 17:11:57,-3.2,-52.21,89.6,55,40,6.93
674,Pundaguitan,PH,2020-09-03 17:11:57,6.37,126.17,83.3,70,97,1.92
675,Oranjemund,NA,2020-09-03 17:11:57,-28.55,16.43,63.12,38,0,3.91
676,Portsmouth,GB,2020-09-03 17:08:46,50.8,-1.09,66.0,92,100,3.0
677,Ulagan,RU,2020-09-03 17:11:58,50.63,87.96,53.44,55,100,0.65
678,Kampot,KH,2020-09-03 17:08:54,10.62,104.18,82.4,88,40,7.74
679,Mweka,CD,2020-09-03 17:11:58,-4.85,21.57,77.27,63,82,1.5
680,Hof,DE,2020-09-03 17:11:59,50.32,11.92,66.0,59,98,8.05
681,Takaka,NZ,2020-09-03 17:11:59,-40.85,172.8,45.0,85,3,2.59
682,Tabou,CI,2020-09-03 17:11:59,4.42,-7.35,76.19,87,96,10.8
683,Tahta,EG,2020-09-03 17:11:59,26.77,31.5,100.4,19,0,9.17
684,Acarau,BR,2020-09-03 17:12:00,-2.89,-40.12,87.53,47,61,20.0
685,Ouadda,CF,2020-09-03 17:12:00,8.08,22.4,71.06,91,83,2.15
686,Bratsk,RU,2020-09-03 17:09:15,56.13,101.61,60.8,82,86,6.71
687,Baghdad,IQ,2020-09-03 17:09:21,33.34,44.4,102.2,20,0,8.05
688,Skjervoy,NO,2020-09-03 17:12:00,70.03,20.97,64.4,45,2,14.99
689,Manokwari,ID,2020-09-03 17:12:01,-0.87,134.08,79.99,71,91,3.11
690,Swinoujscie,PL,2020-09-03 17:12:01,53.91,14.25,69.01,62,99,8.1
691,Muli,MV,2020-09-03 17:12:01,2.92,73.57,83.57,76,2,17.6
